[
  {
    "code": "TEB",
    "name": "Teterboro Airport",
    "city": "Teterboro",
    "state": "New Jersey",
    "stateCode": "NJ",
    "region": "Northeast",
    "description": "Teterboro Airport is one of the busiest private aviation airports in the United States, serving the New York metropolitan area. Known for its proximity to Manhattan and excellent FBO facilities.",
    "fbos": ["Signature Flight Support", "Atlantic Aviation", "Meridian"],
    "coordinates": { "lat": 40.8501, "lng": -74.0608 },
    "nearby": ["HPN", "CDW", "MMU"],
    "metroArea": "New York City"
  },
  {
    "code": "VNY",
    "name": "Van Nuys Airport",
    "city": "Van Nuys",
    "state": "California",
    "stateCode": "CA",
    "region": "West Coast",
    "description": "Van Nuys Airport is the world's busiest general aviation airport, serving the Los Angeles area. It's the preferred choice for private aviation in Southern California.",
    "fbos": ["Atlantic Aviation", "Signature Flight Support", "Clay Lacy Aviation"],
    "coordinates": { "lat": 34.2098, "lng": -118.4897 },
    "nearby": ["BUR", "SMO", "WHP"],
    "metroArea": "Los Angeles"
  },
  {
    "code": "SDL",
    "name": "Scottsdale Airport",
    "city": "Scottsdale",
    "state": "Arizona",
    "stateCode": "AZ",
    "region": "Southwest",
    "description": "Scottsdale Airport serves the Phoenix metropolitan area and is a hub for corporate aviation and private jets visiting Arizona's premier destination.",
    "fbos": ["Scottsdale Jet Center", "Signature Flight Support"],
    "coordinates": { "lat": 33.6228, "lng": -111.9106 },
    "nearby": ["PHX", "DVT", "IWA"],
    "metroArea": "Phoenix"
  },
  {
    "code": "PBI",
    "name": "Palm Beach International Airport",
    "city": "West Palm Beach",
    "state": "Florida",
    "stateCode": "FL",
    "region": "Southeast",
    "description": "Palm Beach International serves South Florida's luxury market, with extensive private aviation facilities catering to seasonal jet owners and visitors.",
    "fbos": ["Signature Flight Support", "Atlantic Aviation", "Jet Aviation"],
    "coordinates": { "lat": 26.6832, "lng": -80.0956 },
    "nearby": ["FXE", "BCT", "LNA"],
    "metroArea": "Palm Beach"
  },
  {
    "code": "SMO",
    "name": "Santa Monica Airport",
    "city": "Santa Monica",
    "state": "California",
    "stateCode": "CA",
    "region": "West Coast",
    "description": "Santa Monica Airport is conveniently located near Beverly Hills and downtown Los Angeles, making it ideal for business and leisure travelers.",
    "fbos": ["Atlantic Aviation", "American Flyers"],
    "coordinates": { "lat": 34.0158, "lng": -118.4513 },
    "nearby": ["VNY", "BUR", "LGB"],
    "metroArea": "Los Angeles"
  },
  {
    "code": "ASE",
    "name": "Aspen-Pitkin County Airport",
    "city": "Aspen",
    "state": "Colorado",
    "stateCode": "CO",
    "region": "Mountain West",
    "description": "Aspen Airport serves one of the most exclusive ski resort destinations, with heavy private jet traffic during winter season.",
    "fbos": ["Signature Flight Support", "Atlantic Aviation"],
    "coordinates": { "lat": 39.2232, "lng": -106.8690 },
    "nearby": ["EGE", "GJT", "HDN"],
    "metroArea": "Aspen"
  },
  {
    "code": "HND",
    "name": "Henderson Executive Airport",
    "city": "Henderson",
    "state": "Nevada",
    "stateCode": "NV",
    "region": "Southwest",
    "description": "Henderson Executive Airport is Las Vegas's premier private aviation facility, serving high-net-worth individuals and corporate jets.",
    "fbos": ["Signature Flight Support", "Atlantic Aviation"],
    "coordinates": { "lat": 35.9728, "lng": -115.1342 },
    "nearby": ["LAS", "VGT", "BLD"],
    "metroArea": "Las Vegas"
  },
  {
    "code": "OPF",
    "name": "Miami-Opa Locka Executive Airport",
    "city": "Opa-locka",
    "state": "Florida",
    "stateCode": "FL",
    "region": "Southeast",
    "description": "Opa-locka Executive Airport is Miami's primary general aviation facility, conveniently located for South Florida and the Caribbean.",
    "fbos": ["Signature Flight Support", "Banyan Air Service"],
    "coordinates": { "lat": 25.9070, "lng": -80.2784 },
    "nearby": ["FXE", "TMB", "MIA"],
    "metroArea": "Miami"
  },
  {
    "code": "HPN",
    "name": "Westchester County Airport",
    "city": "White Plains",
    "state": "New York",
    "stateCode": "NY",
    "region": "Northeast",
    "description": "Westchester County Airport serves the northern New York City suburbs and Connecticut, offering a convenient alternative to Teterboro.",
    "fbos": ["Signature Flight Support", "Million Air"],
    "coordinates": { "lat": 41.0670, "lng": -73.7076 },
    "nearby": ["TEB", "DXR", "BDR"],
    "metroArea": "New York City"
  },
  {
    "code": "HOU",
    "name": "William P. Hobby Airport",
    "city": "Houston",
    "state": "Texas",
    "stateCode": "TX",
    "region": "South",
    "description": "Hobby Airport serves Houston's private aviation community with excellent FBO facilities and convenient access to the city center.",
    "fbos": ["Atlantic Aviation", "Signature Flight Support", "Million Air"],
    "coordinates": { "lat": 29.6454, "lng": -95.2789 },
    "nearby": ["IAH", "EFD", "SGR"],
    "metroArea": "Houston"
  }
]
